{
	"geo": [{
		"lng": 116.76368303542148,
		"lat": 23.392681046251987,
		"company_name": "凯撒(中国)文化股份有限公司",
		"stock_code": "002425",
		"industry_code": "BK0486",
		"value": 0.0018713655598312931
	}, {
		"lng": 113.50210416205205,
		"lat": 23.396709581757026,
		"company_name": "分众传媒信息技术股份有限公司",
		"stock_code": "002027",
		"industry_code": "BK0486",
		"value": 0.028260433937024362
	}, {
		"lng": 116.7933295354794,
		"lat": 23.465057726231677,
		"company_name": "奥飞娱乐股份有限公司",
		"stock_code": "002292",
		"industry_code": "BK0486",
		"value": 0.006669166326967401
	}, {
		"lng": 120.17534578321673,
		"lat": 30.63558506950489,
		"company_name": "完美世界股份有限公司",
		"stock_code": "002624",
		"industry_code": "BK0486",
		"value": 0.03152606826838831
	}, {
		"lng": 120.3752865776596,
		"lat": 30.30941207336861,
		"company_name": "杭州壹网壹创科技股份有限公司",
		"stock_code": "300792",
		"industry_code": "BK0486",
		"value": 0.0034198169611844545
	}, {
		"lng": 108.88742513963385,
		"lat": 34.22912892514605,
		"company_name": "三人行传媒集团股份有限公司",
		"stock_code": "605168",
		"industry_code": "BK0486",
		"value": 0.007045379924893413
	}, {
		"lng": 116.31143895733993,
		"lat": 40.05758506582022,
		"company_name": "华扬联众数字技术股份有限公司",
		"stock_code": "603825",
		"industry_code": "BK0486",
		"value": 0.02931883897257463
	}, {
		"lng": 113.26420808692421,
		"lat": 23.143574459526853,
		"company_name": "广东南方新媒体股份有限公司",
		"stock_code": "300770",
		"industry_code": "BK0486",
		"value": 0.003633352185973347
	}, {
		"lng": 116.36107706866771,
		"lat": 39.89490011496787,
		"company_name": "北京元隆雅图文化传播股份有限公司",
		"stock_code": "002878",
		"industry_code": "BK0486",
		"value": 0.005199670616519326
	}, {
		"lng": 116.67946116036471,
		"lat": 40.29063509783307,
		"company_name": "中国电影股份有限公司",
		"stock_code": "600977",
		"industry_code": "BK0486",
		"value": 0.0028264751378656067
	}, {
		"lng": 116.37582005151104,
		"lat": 39.98895130379252,
		"company_name": "北京歌华有线电视网络股份有限公司",
		"stock_code": "600037",
		"industry_code": "BK0486",
		"value": 0.007233875076853287
	}, {
		"lng": 118.02646908870344,
		"lat": 24.601105302108493,
		"company_name": "厦门安妮股份有限公司",
		"stock_code": "002235",
		"industry_code": "BK0486",
		"value": 0.001025707280320717
	}, {
		"lng": 116.43814108680863,
		"lat": 39.93134892262567,
		"company_name": "中国出版传媒股份有限公司",
		"stock_code": "601949",
		"industry_code": "BK0486",
		"value": 0.013233849133906244
	}, {
		"lng": 116.4307625374006,
		"lat": 39.98959904145419,
		"company_name": "中信出版集团股份有限公司",
		"stock_code": "300788",
		"industry_code": "BK0486",
		"value": 0.004908803658883776
	}, {
		"lng": 108.99057100371441,
		"lat": 34.19075600984499,
		"company_name": "陕西广电网络传媒(集团)股份有限公司",
		"stock_code": "600831",
		"industry_code": "BK0486",
		"value": 0.008293510528619867
	}, {
		"lng": 116.46647728073067,
		"lat": 39.87390250014566,
		"company_name": "掌阅科技股份有限公司",
		"stock_code": "603533",
		"industry_code": "BK0486",
		"value": 0.006007795632947426
	}, {
		"lng": 116.43855452293654,
		"lat": 39.94054617029656,
		"company_name": "北京锋尚世纪文化传媒股份有限公司",
		"stock_code": "300860",
		"industry_code": "BK0486",
		"value": 0.0026235146229505834
	}, {
		"lng": 113.37212654124527,
		"lat": 23.101745345059168,
		"company_name": "广东省广告集团股份有限公司",
		"stock_code": "002400",
		"industry_code": "BK0486",
		"value": 0.03120353813790401
	}, {
		"lng": 109.16518580296894,
		"lat": 21.48554656818858,
		"company_name": "天下秀数字科技(集团)股份有限公司",
		"stock_code": "600556",
		"industry_code": "BK0486",
		"value": 0.008091745074601869
	}, {
		"lng": 119.86213607678269,
		"lat": 31.714827633847445,
		"company_name": "视觉(中国)文化发展股份有限公司",
		"stock_code": "000681",
		"industry_code": "BK0486",
		"value": 0.0016690561170937025
	}, {
		"lng": 121.45841197851584,
		"lat": 31.184727852086308,
		"company_name": "江苏紫天传媒科技股份有限公司",
		"stock_code": "300280",
		"industry_code": "BK0486",
		"value": 0.003167585658908621
	}, {
		"lng": 113.30643625858623,
		"lat": 40.0824687161612,
		"company_name": "当代东方投资股份有限公司",
		"stock_code": "000673",
		"industry_code": "BK0486",
		"value": 3.1013887354901785E-4
	}, {
		"lng": 116.28755696637387,
		"lat": 39.93667142536825,
		"company_name": "引力传媒股份有限公司",
		"stock_code": "603598",
		"industry_code": "BK0486",
		"value": 0.012068397044962048
	}, {
		"lng": 107.40937111722687,
		"lat": 29.706839038823777,
		"company_name": "欢瑞世纪联合股份有限公司",
		"stock_code": "000892",
		"industry_code": "BK0486",
		"value": 1.5530576209454058E-4
	}, {
		"lng": 113.90874164423882,
		"lat": 22.737526446896076,
		"company_name": "深圳万润科技股份有限公司",
		"stock_code": "002654",
		"industry_code": "BK0486",
		"value": 0.011735475316104436
	}, {
		"lng": 118.78908023154054,
		"lat": 32.07512593140051,
		"company_name": "江苏凤凰出版传媒股份有限公司",
		"stock_code": "601928",
		"industry_code": "BK0486",
		"value": 0.03326588729498406
	}, {
		"lng": 114.34967788293552,
		"lat": 30.51594967294841,
		"company_name": "长江出版传媒股份有限公司",
		"stock_code": "600757",
		"industry_code": "BK0486",
		"value": 0.01887426201565809
	}, {
		"lng": 114.15173204177599,
		"lat": 30.484040939850725,
		"company_name": "湖北省广播电视信息网络股份有限公司",
		"stock_code": "000665",
		"industry_code": "BK0486",
		"value": 0.0065812100818502025
	}, {
		"lng": 120.55889224604785,
		"lat": 31.97692204943575,
		"company_name": "长城影视股份有限公司",
		"stock_code": "002071",
		"industry_code": "BK0486",
		"value": 3.188892033096042E-4
	}, {
		"lng": 114.4418476214813,
		"lat": 30.44361419324443,
		"company_name": "武汉当代明诚文化体育集团股份有限公司",
		"stock_code": "600136",
		"industry_code": "BK0486",
		"value": 0.0020369307452103216
	}, {
		"lng": 121.41813280924545,
		"lat": 31.179386581536388,
		"company_name": "东方明珠新媒体股份有限公司",
		"stock_code": "600637",
		"industry_code": "BK0486",
		"value": 0.03616415655866541
	}, {
		"lng": 121.5375086769749,
		"lat": 31.229846476725708,
		"company_name": "中视传媒股份有限公司",
		"stock_code": "600088",
		"industry_code": "BK0486",
		"value": 0.001731838846294807
	}, {
		"lng": 103.85566979915127,
		"lat": 36.066927488999276,
		"company_name": "读者出版传媒股份有限公司",
		"stock_code": "603999",
		"industry_code": "BK0486",
		"value": 0.0022954613950913437
	}, {
		"lng": 113.23254675318438,
		"lat": 23.186529407818348,
		"company_name": "广东广州日报传媒股份有限公司",
		"stock_code": "002181",
		"industry_code": "BK0486",
		"value": 0.0014276354265488952
	}, {
		"lng": 123.42324483376419,
		"lat": 41.79400844229551,
		"company_name": "北方联合出版传媒(集团)股份有限公司",
		"stock_code": "601999",
		"industry_code": "BK0486",
		"value": 0.005826125770340839
	}, {
		"lng": 125.38863907965114,
		"lat": 43.82131439281846,
		"company_name": "吉视传媒股份有限公司",
		"stock_code": "601929",
		"industry_code": "BK0486",
		"value": 0.005459763994264604
	}, {
		"lng": 120.18112649056332,
		"lat": 30.275579146784963,
		"company_name": "浙报数字文化集团股份有限公司",
		"stock_code": "600633",
		"industry_code": "BK0486",
		"value": 0.011414961932309604
	}, {
		"lng": 121.12625475502786,
		"lat": 31.08356948267504,
		"company_name": "上海力盛赛车文化股份有限公司",
		"stock_code": "002858",
		"industry_code": "BK0486",
		"value": 3.940358961635552E-4
	}, {
		"lng": 113.35740421224709,
		"lat": 23.12596386978901,
		"company_name": "广东电声市场营销股份有限公司",
		"stock_code": "300805",
		"industry_code": "BK0486",
		"value": 0.0080758610732006
	}, {
		"lng": 113.24680798196442,
		"lat": 23.378510038012948,
		"company_name": "智度科技股份有限公司",
		"stock_code": "000676",
		"industry_code": "BK0486",
		"value": 0.036614597843499706
	}, {
		"lng": 121.44378781274571,
		"lat": 31.29967610177615,
		"company_name": "上海风语筑文化科技股份有限公司",
		"stock_code": "603466",
		"industry_code": "BK0486",
		"value": 0.006184768781105815
	}, {
		"lng": 120.72707383994836,
		"lat": 30.732879934892736,
		"company_name": "慈文传媒股份有限公司",
		"stock_code": "002343",
		"industry_code": "BK0486",
		"value": 3.656767820647729E-4
	}, {
		"lng": 117.01074699966054,
		"lat": 36.61803791074625,
		"company_name": "山东出版传媒股份有限公司",
		"stock_code": "601019",
		"industry_code": "BK0486",
		"value": 0.023369125078195732
	}, {
		"lng": 117.33205288572368,
		"lat": 31.796446031311653,
		"company_name": "安徽新华传媒股份有限公司",
		"stock_code": "601801",
		"industry_code": "BK0486",
		"value": 0.02297639349009907
	}, {
		"lng": 116.50627782923213,
		"lat": 39.993976382120074,
		"company_name": "创业黑马科技集团股份有限公司",
		"stock_code": "300688",
		"industry_code": "BK0486",
		"value": 3.548848009840591E-4
	}, {
		"lng": 118.72868449312041,
		"lat": 32.013289689594494,
		"company_name": "江苏省广电有线信息网络股份有限公司",
		"stock_code": "600959",
		"industry_code": "BK0486",
		"value": 0.021450579811271405
	}, {
		"lng": 116.42705324800065,
		"lat": 39.955251285595295,
		"company_name": "中文在线数字出版集团股份有限公司",
		"stock_code": "300364",
		"industry_code": "BK0486",
		"value": 0.002543361823706394
	}, {
		"lng": 117.74402694057096,
		"lat": 39.132624852594,
		"company_name": "新经典文化股份有限公司",
		"stock_code": "603096",
		"industry_code": "BK0486",
		"value": 0.0026801863782888523
	}, {
		"lng": 112.99554970939707,
		"lat": 28.20892656283643,
		"company_name": "中南出版传媒集团股份有限公司",
		"stock_code": "601098",
		"industry_code": "BK0486",
		"value": 0.025317537989044948
	}, {
		"lng": 116.1962703411953,
		"lat": 39.94070760358218,
		"company_name": "北京华录百纳影视股份有限公司",
		"stock_code": "300291",
		"industry_code": "BK0486",
		"value": 3.079974701521078E-4
	}, {
		"lng": 113.31071937012935,
		"lat": 23.140291846491802,
		"company_name": "南方出版传媒股份有限公司",
		"stock_code": "601900",
		"industry_code": "BK0486",
		"value": 0.015446977090673239
	}, {
		"lng": 117.99187435538954,
		"lat": 28.429528474779907,
		"company_name": "中文天地出版传媒集团股份有限公司",
		"stock_code": "600373",
		"industry_code": "BK0486",
		"value": 0.03032507601998309
	}, {
		"lng": 114.39361696663867,
		"lat": 22.73886298858587,
		"company_name": "深圳市惠程信息科技股份有限公司",
		"stock_code": "002168",
		"industry_code": "BK0486",
		"value": 0.0031470042974759338
	}, {
		"lng": 121.44923248106883,
		"lat": 31.25085253580774,
		"company_name": "号百控股股份有限公司",
		"stock_code": "600640",
		"industry_code": "BK0486",
		"value": 0.008864603437468721
	}, {
		"lng": 113.25095664079835,
		"lat": 35.24892015649618,
		"company_name": "中原大地传媒股份有限公司",
		"stock_code": "000719",
		"industry_code": "BK0486",
		"value": 0.02407735613399718
	}, {
		"lng": 114.0738514500544,
		"lat": 22.56436215788852,
		"company_name": "深圳市天威视讯股份有限公司",
		"stock_code": "002238",
		"industry_code": "BK0486",
		"value": 0.005427943601829201
	}, {
		"lng": 120.16556449024755,
		"lat": 30.281405324859055,
		"company_name": "浙江祥源文化股份有限公司",
		"stock_code": "600576",
		"industry_code": "BK0486",
		"value": 7.644548443583807E-4
	}, {
		"lng": 106.63224788586986,
		"lat": 26.637032021492082,
		"company_name": "贵州省广播电视信息网络股份有限公司",
		"stock_code": "600996",
		"industry_code": "BK0486",
		"value": 0.010473075194229537
	}, {
		"lng": 117.2201810094786,
		"lat": 31.835612555046335,
		"company_name": "时代出版传媒股份有限公司",
		"stock_code": "600551",
		"industry_code": "BK0486",
		"value": 0.01677775562577256
	}, {
		"lng": 104.09517468383113,
		"lat": 30.59507388217744,
		"company_name": "新华文轩出版传媒股份有限公司",
		"stock_code": "601811",
		"industry_code": "BK0486",
		"value": 0.02210345668444351
	}, {
		"lng": 116.50001855860813,
		"lat": 39.9411725693318,
		"company_name": "乐视网信息技术(北京)股份有限公司",
		"stock_code": "300104",
		"industry_code": "BK0486",
		"value": 8.691056340610737E-4
	}, {
		"lng": 104.01329592691951,
		"lat": 30.726407640532027,
		"company_name": "金亚科技股份有限公司",
		"stock_code": "300028",
		"industry_code": "BK0486",
		"value": 8.417547982439315E-5
	}, {
		"lng": 105.62022413032227,
		"lat": 30.489348579920755,
		"company_name": "印纪娱乐传媒股份有限公司",
		"stock_code": "002143",
		"industry_code": "BK0486",
		"value": 3.6654180908934404E-4
	}, {
		"lng": 114.1331445588652,
		"lat": 22.5512601359277,
		"company_name": "大晟时代文化投资股份有限公司",
		"stock_code": "600892",
		"industry_code": "BK0486",
		"value": 0.0012934874556383695
	}, {
		"lng": 113.93155631530229,
		"lat": 22.58909210989834,
		"company_name": "深圳市联建光电股份有限公司",
		"stock_code": "300269",
		"industry_code": "BK0486",
		"value": 0.0036204424212729672
	}, {
		"lng": 116.41302851071767,
		"lat": 39.93696179049354,
		"company_name": "中国科技出版传媒股份有限公司",
		"stock_code": "601858",
		"industry_code": "BK0486",
		"value": 0.006002505197990755
	}, {
		"lng": 121.42765061214074,
		"lat": 31.032790218162486,
		"company_name": "上海新华传媒股份有限公司",
		"stock_code": "600825",
		"industry_code": "BK0486",
		"value": 0.0031975257390112976
	}, {
		"lng": 119.68922492952471,
		"lat": 30.197156112569257,
		"company_name": "浙江聚力文化发展股份有限公司",
		"stock_code": "002247",
		"industry_code": "BK0486",
		"value": 0.002367583914987128
	}, {
		"lng": 108.43105897849334,
		"lat": 22.757111991861336,
		"company_name": "广西广播电视信息网络股份有限公司",
		"stock_code": "600936",
		"industry_code": "BK0486",
		"value": 0.004874256390047883
	}, {
		"lng": 120.40829688960777,
		"lat": 36.071359928086025,
		"company_name": "青岛城市传媒股份有限公司",
		"stock_code": "600229",
		"industry_code": "BK0486",
		"value": 0.006314012236631328
	}, {
		"lng": 116.3805736174731,
		"lat": 39.9599960905852,
		"company_name": "人民网股份有限公司",
		"stock_code": "603000",
		"industry_code": "BK0486",
		"value": 0.0043191319848038265
	}, {
		"lng": 121.14878143025066,
		"lat": 30.188062675913905,
		"company_name": "浙江唐德影视股份有限公司",
		"stock_code": "300426",
		"industry_code": "BK0486",
		"value": 7.99992192011202E-4
	}, {
		"lng": 104.09133698794668,
		"lat": 30.592920852634272,
		"company_name": "成都博瑞传播股份有限公司",
		"stock_code": "600880",
		"industry_code": "BK0486",
		"value": 0.001204032939051018
	}, {
		"lng": 116.20002535883721,
		"lat": 39.94544849749532,
		"company_name": "暴风集团股份有限公司",
		"stock_code": "300431",
		"industry_code": "BK0486",
		"value": 5.736911530535598E-4
	}, {
		"lng": 120.17703136008242,
		"lat": 30.276447978437844,
		"company_name": "浙江华媒控股股份有限公司",
		"stock_code": "000607",
		"industry_code": "BK0486",
		"value": 0.004067196086833633
	}, {
		"lng": 121.19670980209112,
		"lat": 31.117991251310105,
		"company_name": "上海龙韵传媒集团股份有限公司",
		"stock_code": "603729",
		"industry_code": "BK0486",
		"value": 0.0018662270398670624
	}, {
		"lng": 112.98992799943268,
		"lat": 28.181081982466985,
		"company_name": "中广天择传媒股份有限公司",
		"stock_code": "603721",
		"industry_code": "BK0486",
		"value": 6.049011719612537E-4
	}, {
		"lng": 120.1677875268931,
		"lat": 30.18940258770905,
		"company_name": "华数传媒控股股份有限公司",
		"stock_code": "000156",
		"industry_code": "BK0486",
		"value": 0.011244007145598556
	}, {
		"lng": 116.50807614703254,
		"lat": 39.922414537121334,
		"company_name": "宣亚国际营销科技(北京)股份有限公司",
		"stock_code": "300612",
		"industry_code": "BK0486",
		"value": 0.00102409753894497
	}, {
		"lng": 113.32383130145048,
		"lat": 23.124035460977044,
		"company_name": "广东因赛品牌营销集团股份有限公司",
		"stock_code": "300781",
		"industry_code": "BK0486",
		"value": 8.619371862443434E-4
	}, {
		"lng": 121.46583692270856,
		"lat": 31.242214134883856,
		"company_name": "上海游久游戏股份有限公司",
		"stock_code": "600652",
		"industry_code": "BK0486",
		"value": 5.171299355612625E-5
	}, {
		"lng": 120.29329453388645,
		"lat": 29.165437466706983,
		"company_name": "横店影视股份有限公司",
		"stock_code": "603103",
		"industry_code": "BK0486",
		"value": 6.014023686480371E-4
	}, {
		"lng": 118.41349864392043,
		"lat": 37.059638498906146,
		"company_name": "科达集团股份有限公司",
		"stock_code": "600986",
		"industry_code": "BK0486",
		"value": 0.02782146878372752
	}, {
		"lng": 116.47742003421573,
		"lat": 39.92011893574207,
		"company_name": "北京腾信创新网络营销技术股份有限公司",
		"stock_code": "300392",
		"industry_code": "BK0486",
		"value": 0.003662422198562254
	}, {
		"lng": 113.11738558403044,
		"lat": 28.101707072397176,
		"company_name": "湖南电广传媒股份有限公司",
		"stock_code": "000917",
		"industry_code": "BK0486",
		"value": 0.01506341686163313
	}, {
		"lng": 119.53594753156237,
		"lat": 29.126295704749896,
		"company_name": "艾格拉斯股份有限公司",
		"stock_code": "002619",
		"industry_code": "BK0486",
		"value": 9.641149293471335E-4
	}, {
		"lng": 118.85782487077721,
		"lat": 31.815193625051283,
		"company_name": "江苏三六五网络股份有限公司",
		"stock_code": "300295",
		"industry_code": "BK0486",
		"value": 0.0013006367015068498
	}, {
		"lng": 116.1984178411271,
		"lat": 39.944460408366155,
		"company_name": "北京华谊嘉信整合营销顾问集团股份有限公司",
		"stock_code": "300071",
		"industry_code": "BK0486",
		"value": 0.002608034766511983
	}, {
		"lng": 118.97043953249256,
		"lat": 32.12201883609469,
		"company_name": "幸福蓝海影视文化集团股份有限公司",
		"stock_code": "300528",
		"industry_code": "BK0486",
		"value": 5.572318187733897E-4
	}, {
		"lng": 123.35022820116629,
		"lat": 41.67744269144927,
		"company_name": "文投控股股份有限公司",
		"stock_code": "600715",
		"industry_code": "BK0486",
		"value": 0.00119533716625152
	}, {
		"lng": 104.05983016723563,
		"lat": 30.617111458578016,
		"company_name": "长城国际动漫游戏股份有限公司",
		"stock_code": "000835",
		"industry_code": "BK0486",
		"value": 4.197740874111494E-5
	}, {
		"lng": 116.36777889129779,
		"lat": 39.780332455099604,
		"company_name": "新华网股份有限公司",
		"stock_code": "603888",
		"industry_code": "BK0486",
		"value": 0.0027167314605065444
	}, {
		"lng": 120.07579700029655,
		"lat": 30.306125045837824,
		"company_name": "浙江华策影视股份有限公司",
		"stock_code": "300133",
		"industry_code": "BK0486",
		"value": 0.006825299682189065
	}, {
		"lng": 113.32452082728511,
		"lat": 23.12676802277017,
		"company_name": "广州金逸影视传媒股份有限公司",
		"stock_code": "002905",
		"industry_code": "BK0486",
		"value": 4.1499605583276636E-4
	}, {
		"lng": 113.05281378680736,
		"lat": 28.24279640692689,
		"company_name": "芒果超媒股份有限公司",
		"stock_code": "300413",
		"industry_code": "BK0486",
		"value": 0.035388257377911625
	}, {
		"lng": 121.7141353029578,
		"lat": 31.17452412373301,
		"company_name": "旗天科技集团股份有限公司",
		"stock_code": "300061",
		"industry_code": "BK0486",
		"value": 0.0033851501091051376
	}, {
		"lng": 117.92900204259752,
		"lat": 24.548161874586402,
		"company_name": "厦门吉宏科技股份有限公司",
		"stock_code": "002803",
		"industry_code": "BK0486",
		"value": 0.011747552858515656
	}, {
		"lng": 118.02341980672585,
		"lat": 36.8711747818148,
		"company_name": "山东联创产业发展集团股份有限公司",
		"stock_code": "300343",
		"industry_code": "BK0486",
		"value": 0.005805483575331182
	}, {
		"lng": 112.58194045389543,
		"lat": 23.032630398437334,
		"company_name": "广东天龙油墨集团股份有限公司",
		"stock_code": "300063",
		"industry_code": "BK0486",
		"value": 0.030167146210397424
	}, {
		"lng": 116.4981236406264,
		"lat": 39.99370601077105,
		"company_name": "北京蓝色光标数据科技股份有限公司",
		"stock_code": "300058",
		"industry_code": "BK0486",
		"value": 0.10649138152523757
	}, {
		"lng": 113.09427903015093,
		"lat": 28.261066012453472,
		"company_name": "天舟文化股份有限公司",
		"stock_code": "300148",
		"industry_code": "BK0486",
		"value": 0.002315686238110292
	}, {
		"lng": 120.29538426199363,
		"lat": 29.163669023677855,
		"company_name": "华谊兄弟传媒股份有限公司",
		"stock_code": "300027",
		"industry_code": "BK0486",
		"value": 0.001987961214940408
	}, {
		"lng": 110.36100746092988,
		"lat": 20.02367307726411,
		"company_name": "华闻传媒投资集团股份有限公司",
		"stock_code": "000793",
		"industry_code": "BK0486",
		"value": 0.009521671733606983
	}, {
		"lng": 120.16076978458804,
		"lat": 30.21407134200006,
		"company_name": "思美传媒股份有限公司",
		"stock_code": "002712",
		"industry_code": "BK0486",
		"value": 0.009520234694966536
	}, {
		"lng": 120.21551180372168,
		"lat": 30.25308298169347,
		"company_name": "浙江金科文化产业股份有限公司",
		"stock_code": "300459",
		"industry_code": "BK0486",
		"value": 0.005526733573657995
	}, {
		"lng": 120.35942073448813,
		"lat": 30.3087600019807,
		"company_name": "浙江米奥兰特商务会展股份有限公司",
		"stock_code": "300795",
		"industry_code": "BK0486",
		"value": 1.1258781497504227E-4
	}, {
		"lng": 116.50144250699779,
		"lat": 39.91476223861204,
		"company_name": "万达电影股份有限公司",
		"stock_code": "002739",
		"industry_code": "BK0486",
		"value": 0.01208858801573178
	}, {
		"lng": 116.4309232074258,
		"lat": 39.95838553373802,
		"company_name": "北京光线传媒股份有限公司",
		"stock_code": "300251",
		"industry_code": "BK0486",
		"value": 0.0015886113554285412
	}, {
		"lng": 116.11047036035968,
		"lat": 39.96859981219406,
		"company_name": "北京京西文化旅游股份有限公司",
		"stock_code": "000802",
		"industry_code": "BK0486",
		"value": 3.462056591388623E-5
	}]
}